Data-Budget-analysis/Simulation-STK/Access_J4_400km_51.6deg.txt

                                                                              01 Jul 2023 13:17:30
Civil Air Patrol Use Only
Facility-APRSGT-To-Satellite-DRAGONFLY:  Access Summary Report


APRSGT-To-DRAGONFLY
-------------------
                  Access        Start Time (UTCG)           Stop Time (UTCG)        Duration (sec)
                  ------    ------------------------    ------------------------    --------------
                       1    30 Jun 2023 21:14:12.840    30 Jun 2023 21:22:33.314           500.475
                       2    30 Jun 2023 22:49:03.239    30 Jun 2023 22:59:40.260           637.021
                       3     1 Jul 2023 00:27:17.199     1 Jul 2023 00:35:22.178           484.979
                       4     1 Jul 2023 02:07:15.884     1 Jul 2023 02:11:17.544           241.660
                       5     1 Jul 2023 03:44:22.353     1 Jul 2023 03:50:33.742           371.389
                       6     1 Jul 2023 05:19:56.188     1 Jul 2023 05:29:51.796           595.607
                       7     1 Jul 2023 06:56:10.345     1 Jul 2023 07:06:23.116           612.771
                       8     1 Jul 2023 20:22:15.677     1 Jul 2023 20:27:16.819           301.141
                       9     1 Jul 2023 21:55:11.487     1 Jul 2023 22:05:47.791           636.304
                      10     1 Jul 2023 23:32:30.772     1 Jul 2023 23:41:44.271           553.499
                      11     2 Jul 2023 01:12:15.576     2 Jul 2023 01:17:21.255           305.679
                      12     2 Jul 2023 02:50:37.534     2 Jul 2023 02:55:27.448           289.914
                      13     2 Jul 2023 04:26:16.702     2 Jul 2023 04:35:17.329           540.628
                      14     2 Jul 2023 06:02:09.538     2 Jul 2023 06:12:48.412           638.874
                      15     2 Jul 2023 07:40:15.728     2 Jul 2023 07:46:15.032           359.304
                      16     2 Jul 2023 21:01:41.665     2 Jul 2023 21:11:44.253           602.589
                      17     2 Jul 2023 22:37:59.638     2 Jul 2023 22:48:04.170           604.532
                      18     3 Jul 2023 00:17:09.261     3 Jul 2023 00:23:38.258           388.997
                      19     3 Jul 2023 01:56:36.773     3 Jul 2023 02:00:30.592           233.820
                      20     3 Jul 2023 03:32:38.985     3 Jul 2023 03:40:28.047           469.062
                      21     3 Jul 2023 05:08:18.810     3 Jul 2023 05:18:52.543           633.733
                      22     3 Jul 2023 06:45:15.163     3 Jul 2023 06:54:00.288           525.125
                      23     3 Jul 2023 20:08:40.163     3 Jul 2023 20:17:22.111           521.948
                      24     3 Jul 2023 21:43:45.590     3 Jul 2023 21:54:19.838           634.248
                      25     3 Jul 2023 23:22:08.658     3 Jul 2023 23:29:59.938           471.280
                      26     4 Jul 2023 01:02:06.379     4 Jul 2023 01:06:01.125           234.746
                      27     4 Jul 2023 02:39:00.604     4 Jul 2023 02:45:27.179           386.576
                      28     4 Jul 2023 04:14:34.630     4 Jul 2023 04:24:37.984           603.354
                      29     4 Jul 2023 05:50:53.716     4 Jul 2023 06:00:57.823           604.107
                      30     4 Jul 2023 19:16:27.534     4 Jul 2023 19:22:19.657           352.123
                      31     4 Jul 2023 20:49:50.281     4 Jul 2023 21:00:28.885           638.604
                      32     4 Jul 2023 22:27:19.757     4 Jul 2023 22:36:22.198           542.442
                      33     5 Jul 2023 00:07:08.999     5 Jul 2023 00:12:01.019           292.020
                      34     5 Jul 2023 01:45:17.381     5 Jul 2023 01:50:20.826           303.445
                      35     5 Jul 2023 03:20:54.616     5 Jul 2023 03:30:06.388           551.772
                      36     5 Jul 2023 04:56:50.576     5 Jul 2023 05:07:27.314           636.738
                      37     5 Jul 2023 06:35:17.711     5 Jul 2023 06:40:27.787           310.077
                      38     5 Jul 2023 19:56:16.236     5 Jul 2023 20:06:27.716           611.481
                      39     5 Jul 2023 21:32:45.745     5 Jul 2023 21:42:42.633           596.888
                      40     5 Jul 2023 23:12:02.665     5 Jul 2023 23:18:16.475           373.809
                      41     6 Jul 2023 00:51:20.512     6 Jul 2023 00:55:20.940           240.427
                      42     6 Jul 2023 02:27:16.745     6 Jul 2023 02:35:19.558           482.813
                      43     6 Jul 2023 04:02:58.356     6 Jul 2023 04:13:34.990           636.634
                      44     6 Jul 2023 05:40:03.764     6 Jul 2023 05:48:27.847           504.083
                      45     6 Jul 2023 19:03:08.888     6 Jul 2023 19:12:09.769           540.881
                      46     6 Jul 2023 20:38:28.537     6 Jul 2023 20:48:59.218           630.681
                      47     6 Jul 2023 22:17:00.489     6 Jul 2023 22:24:37.707           457.218
                      48     6 Jul 2023 23:56:55.973     7 Jul 2023 00:00:45.688           229.715
                      49     7 Jul 2023 01:33:38.713     7 Jul 2023 01:40:20.423           401.710
                      50     7 Jul 2023 03:09:13.208     7 Jul 2023 03:19:23.638           610.430
                      51     7 Jul 2023 04:45:37.650     7 Jul 2023 04:55:31.661           594.011
                      52     7 Jul 2023 18:10:44.137     7 Jul 2023 18:17:17.991           393.854
                      53     7 Jul 2023 19:44:29.746     7 Jul 2023 19:55:09.658           639.913
                      54     7 Jul 2023 21:22:09.217     7 Jul 2023 21:31:00.066           530.850
                      55     7 Jul 2023 23:02:02.162     7 Jul 2023 23:06:41.261           279.099
                      56     8 Jul 2023 00:39:56.809     8 Jul 2023 00:45:14.390           317.581
                      57     8 Jul 2023 02:15:32.603     8 Jul 2023 02:24:54.960           562.356
                      58     8 Jul 2023 03:51:31.952     8 Jul 2023 04:02:05.533           633.582
                      59     8 Jul 2023 05:30:26.532     8 Jul 2023 05:34:33.472           246.940
                      60     8 Jul 2023 18:50:51.641     8 Jul 2023 19:01:10.668           619.026
                      61     8 Jul 2023 20:27:32.392     8 Jul 2023 20:37:20.980           588.588
                      62     8 Jul 2023 22:06:56.223     8 Jul 2023 22:12:54.872           358.649
                      63     8 Jul 2023 23:46:03.342     8 Jul 2023 23:50:12.110           248.768
                      64     9 Jul 2023 01:21:54.502     9 Jul 2023 01:30:10.677           496.175
                      65     9 Jul 2023 02:57:38.129     9 Jul 2023 03:08:16.841           638.712
                      66     9 Jul 2023 04:34:53.661     9 Jul 2023 04:42:53.842           480.181
                      67     9 Jul 2023 17:57:38.871     9 Jul 2023 18:06:56.458           557.588
                      68     9 Jul 2023 19:33:12.074     9 Jul 2023 19:43:38.403           626.329
                      69     9 Jul 2023 21:11:52.680     9 Jul 2023 21:19:15.506           442.826
                      70     9 Jul 2023 22:51:44.569     9 Jul 2023 22:55:31.302           226.734
                      71    10 Jul 2023 00:28:16.703    10 Jul 2023 00:35:13.431           416.728
                      72    10 Jul 2023 02:03:51.935    10 Jul 2023 02:14:08.737           616.802
                      73    10 Jul 2023 03:40:22.203    10 Jul 2023 03:50:04.584           582.381
                      74    10 Jul 2023 17:05:04.095    10 Jul 2023 17:12:13.225           429.129
                      75    10 Jul 2023 18:39:09.862    10 Jul 2023 18:49:50.138           640.276
                      76    10 Jul 2023 20:16:59.139    10 Jul 2023 20:25:37.893           518.753
                      77    10 Jul 2023 21:56:54.959    10 Jul 2023 22:01:22.060           267.101
                      78    10 Jul 2023 23:34:35.895    10 Jul 2023 23:40:08.055           332.160
                      79    11 Jul 2023 01:10:10.676    11 Jul 2023 01:19:43.037           572.361
                      80    11 Jul 2023 02:46:13.698    11 Jul 2023 02:56:43.045           629.348
                      81    11 Jul 2023 04:25:50.464    11 Jul 2023 04:28:23.813           153.348
                      82    11 Jul 2023 17:45:27.829    11 Jul 2023 17:55:53.148           625.319
                      83    11 Jul 2023 19:22:19.560    11 Jul 2023 19:31:59.213           579.653
                      84    11 Jul 2023 21:01:49.879    11 Jul 2023 21:07:33.473           343.595
                      85    11 Jul 2023 22:40:45.351    11 Jul 2023 22:45:03.972           258.621
                      86    12 Jul 2023 00:16:32.268    12 Jul 2023 00:25:01.384           509.116
                      87    12 Jul 2023 01:52:18.140    12 Jul 2023 02:02:58.072           639.932
                      88    12 Jul 2023 03:29:45.124    12 Jul 2023 03:37:18.007           452.883
                      89    12 Jul 2023 16:52:09.996    12 Jul 2023 17:01:42.289           572.293
                      90    12 Jul 2023 18:27:56.176    12 Jul 2023 18:38:17.408           621.232
                      91    12 Jul 2023 20:06:45.196    12 Jul 2023 20:13:53.358           428.162
                      92    12 Jul 2023 21:46:32.104    12 Jul 2023 21:50:17.997           225.893
                      93    12 Jul 2023 23:22:54.609    12 Jul 2023 23:30:06.180           431.571
                      94    13 Jul 2023 00:58:30.808    13 Jul 2023 01:08:53.278           622.471
                      95    13 Jul 2023 02:35:07.444    13 Jul 2023 02:44:36.518           569.074
                      96    13 Jul 2023 15:59:26.621    13 Jul 2023 16:07:06.130           459.508
                      97    13 Jul 2023 17:33:50.615    13 Jul 2023 17:44:30.345           639.729
                      98    13 Jul 2023 19:11:49.508    13 Jul 2023 19:20:15.679           506.170
                      99    13 Jul 2023 20:51:47.276    13 Jul 2023 20:56:03.498           256.221
                     100    13 Jul 2023 22:29:14.690    13 Jul 2023 22:35:01.736           347.045
                     101    14 Jul 2023 00:04:48.834    14 Jul 2023 00:14:30.600           581.767
                     102    14 Jul 2023 01:40:55.844    14 Jul 2023 01:51:19.822           623.977
                     103    14 Jul 2023 15:08:10.708    14 Jul 2023 15:11:10.597           179.889
                     104    14 Jul 2023 16:40:04.780    14 Jul 2023 16:50:35.200           630.420
                     105    14 Jul 2023 18:17:07.244    14 Jul 2023 18:26:37.350           570.106
                     106    14 Jul 2023 19:56:43.564    14 Jul 2023 20:02:12.326           328.762
                     107    14 Jul 2023 21:35:26.642    14 Jul 2023 21:39:56.405           269.763
                     108    14 Jul 2023 23:11:10.067    14 Jul 2023 23:19:51.651           521.584
                     109    15 Jul 2023 00:46:58.408    15 Jul 2023 00:57:38.680           640.273
                     110    15 Jul 2023 02:24:38.516    15 Jul 2023 02:31:39.996           421.481

Global Statistics
-----------------
Min Duration          81    11 Jul 2023 04:25:50.464    11 Jul 2023 04:28:23.813           153.348
Max Duration          75    10 Jul 2023 18:39:09.862    10 Jul 2023 18:49:50.138           640.276
Mean Duration                                                                              476.582
Total Duration                                                                           52424.010
