Data-Budget-analysis/Simulation-STK/AER_J4_400km_51.6deg.txt

                                                                         01 Jul 2023 13:17:51
Civil Air Patrol Use Only
Facility-APRSGT-To-Satellite-DRAGONFLY:  Inview Azimuth, Elevation, & Range


APRSGT-To-DRAGONFLY - AER reported in the object's default AER frame
--------------------------------------------------------------------
                         Time (UTCG)          Azimuth (deg)    Elevation (deg)     Range (km)
                  ------------------------    -------------    ---------------    -----------
                  30 Jun 2023 21:14:12.840          177.354              0.000    2291.954787
                  30 Jun 2023 21:15:12.000          169.421              2.947    1990.450814
                  30 Jun 2023 21:16:12.000          158.673              5.912    1733.369396
                  30 Jun 2023 21:17:12.000          144.667              8.398    1551.263560
                  30 Jun 2023 21:18:12.000          127.950              9.619    1473.241700
                  30 Jun 2023 21:19:12.000          110.799              9.004    1515.936703
                  30 Jun 2023 21:20:12.000           95.843              6.872    1670.069897
                  30 Jun 2023 21:21:12.000           84.160              4.027    1908.379167
                  30 Jun 2023 21:22:12.000           75.428              1.042    2202.970860
                  30 Jun 2023 21:22:33.314           72.897              0.000    2317.051340

Min Elevation     30 Jun 2023 21:14:12.840          177.354              0.000    2291.954787
Max Elevation     30 Jun 2023 21:18:22.297          124.955              9.647    1471.897416
Mean Elevation                                                           4.782               
Min Range         30 Jun 2023 21:18:20.953          125.346              9.647    1471.866425
Max Range         30 Jun 2023 21:22:33.314           72.897              0.000    2317.051381
Mean Range                                                                        1865.468822

                         Time (UTCG)          Azimuth (deg)    Elevation (deg)     Range (km)
                  ------------------------    -------------    ---------------    -----------
                  30 Jun 2023 22:49:03.239          234.104              0.000    2299.919822
                  30 Jun 2023 22:50:03.000          235.909              4.107    1890.837652
                  30 Jun 2023 22:51:03.000          238.698              9.448    1485.154987
                  30 Jun 2023 22:52:03.000          243.652             17.253    1092.743325
                  30 Jun 2023 22:53:03.000          254.982             30.628     737.972281
                  30 Jun 2023 22:54:03.000          294.872             51.557     509.722347
                  30 Jun 2023 22:55:03.000            5.457             42.420     583.751947
                  30 Jun 2023 22:56:03.000           27.215             23.918     887.094313
                  30 Jun 2023 22:57:03.000           34.797             13.598    1263.426151
                  30 Jun 2023 22:58:03.000           38.601              7.122    1662.847845
                  30 Jun 2023 22:59:03.000           40.931              2.421    2070.804204
                  30 Jun 2023 22:59:40.260           41.991              0.000    2325.851404

Min Elevation     30 Jun 2023 22:59:40.260           41.991              0.000    2325.851675
Max Elevation     30 Jun 2023 22:54:19.885          317.986             53.932     495.591408
Mean Elevation                                                          16.873               
Min Range         30 Jun 2023 22:54:19.721          317.748             53.932     495.590020
Max Range         30 Jun 2023 22:59:40.260           41.991              0.000    2325.851675
Mean Range                                                                        1400.843857

                         Time (UTCG)          Azimuth (deg)    Elevation (deg)     Range (km)
                  ------------------------    -------------    ---------------    -----------
                   1 Jul 2023 00:27:17.199          285.313              0.000    2316.478754
                   1 Jul 2023 00:28:17.000          293.904              2.699    2037.606802
                   1 Jul 2023 00:29:17.000          304.962              5.240    1809.960486
                   1 Jul 2023 00:30:17.000          318.655              7.192    1657.197991
                   1 Jul 2023 00:31:17.000          334.235              7.980    1601.476523
                   1 Jul 2023 00:32:17.000          349.861              7.292    1652.761199
                   1 Jul 2023 00:33:17.000            3.664              5.413    1801.647827
                   1 Jul 2023 00:34:17.000           14.847              2.915    2026.125665
                   1 Jul 2023 00:35:17.000           23.580              0.232    2303.357334
                   1 Jul 2023 00:35:22.178           24.235              0.000    2329.134832

Min Elevation      1 Jul 2023 00:27:17.199          285.313              0.000    2316.478754
Max Elevation      1 Jul 2023 00:31:19.083          334.790              7.981    1601.463120
Mean Elevation                                                           3.896               
Min Range          1 Jul 2023 00:31:18.255          334.569              7.980    1601.452733
Max Range          1 Jul 2023 00:35:22.178           24.235              0.000    2329.134835
Mean Range                                                                        1953.574741

                         Time (UTCG)          Azimuth (deg)    Elevation (deg)     Range (km)
                  ------------------------    -------------    ---------------    -----------
                   1 Jul 2023 02:07:15.884          332.879              0.000    2328.729615
                   1 Jul 2023 02:08:15.000          343.461              1.016    2218.906649
                   1 Jul 2023 02:09:15.000          354.939              1.400    2179.027496
                   1 Jul 2023 02:10:15.000            6.437              1.057    2215.258572
                   1 Jul 2023 02:11:15.000           17.219              0.055    2323.884838
                   1 Jul 2023 02:11:17.544           17.652              0.000    2329.956934

Min Elevation      1 Jul 2023 02:07:15.884          332.879              0.000    2328.729615
Max Elevation      1 Jul 2023 02:09:16.691          355.267              1.401    2179.005754
Mean Elevation                                                           0.588               
Min Range          1 Jul 2023 02:09:16.449          355.220              1.401    2179.005123
Max Range          1 Jul 2023 02:11:17.544           17.652              0.000    2329.956934
Mean Range                                                                        2265.960684

                         Time (UTCG)          Azimuth (deg)    Elevation (deg)     Range (km)
                  ------------------------    -------------    ---------------    -----------
                   1 Jul 2023 03:44:22.353          340.946              0.000    2329.800999
                   1 Jul 2023 03:45:22.000          350.876              1.848    2132.571144
                   1 Jul 2023 03:46:22.000            2.517              3.198    1999.607929
                   1 Jul 2023 03:47:22.000           15.291              3.760    1946.389658
                   1 Jul 2023 03:48:22.000           28.197              3.388    1979.650770
                   1 Jul 2023 03:49:22.000           40.169              2.178    2095.219205
                   1 Jul 2023 03:50:22.000           50.552              0.393    2280.256879
                   1 Jul 2023 03:50:33.742           52.379              0.000    2323.232842

Min Elevation      1 Jul 2023 03:44:22.353          340.946              0.000    2329.800999
Max Elevation      1 Jul 2023 03:47:28.285           16.657              3.766    1945.799223
Mean Elevation                                                           1.846               
Min Range          1 Jul 2023 03:47:29.032           16.819              3.766    1945.792917
Max Range          1 Jul 2023 03:44:22.353          340.946              0.000    2329.800999
Mean Range                                                                        2135.841178

                         Time (UTCG)          Azimuth (deg)    Elevation (deg)     Range (km)
                  ------------------------    -------------    ---------------    -----------
                   1 Jul 2023 05:19:56.188          326.705              0.000    2327.640670
                   1 Jul 2023 05:20:56.000          332.009              3.623    1957.787080
                   1 Jul 2023 05:21:56.000          339.702              7.883    1608.875335
                   1 Jul 2023 05:22:56.000          351.488             12.867    1302.167040
                   1 Jul 2023 05:23:56.000            9.915             17.932    1076.329381
                   1 Jul 2023 05:24:56.000           35.467             20.378     989.749952
                   1 Jul 2023 05:25:56.000           60.983             17.825    1077.071941
                   1 Jul 2023 05:26:56.000           79.347             12.698    1303.646075
                   1 Jul 2023 05:27:56.000           91.073              7.684    1611.175055
                   1 Jul 2023 05:28:56.000           98.708              3.406    1961.071499
                   1 Jul 2023 05:29:51.796          103.651             -0.000    2306.739281

Min Elevation      1 Jul 2023 05:29:51.796          103.651             -0.000    2306.739454
Max Elevation      1 Jul 2023 05:24:55.362           35.176             20.379     989.756221
Mean Elevation                                                           9.481               
Min Range          1 Jul 2023 05:24:55.872           35.408             20.378     989.749563
Max Range          1 Jul 2023 05:19:56.188          326.705              0.000    2327.640670
Mean Range                                                                        1592.932119

                         Time (UTCG)          Azimuth (deg)    Elevation (deg)     Range (km)
                  ------------------------    -------------    ---------------    -----------
                   1 Jul 2023 06:56:10.345          303.447              0.000    2322.062123
                   1 Jul 2023 06:57:10.000          299.888              3.880    1927.987821
                   1 Jul 2023 06:58:10.000          294.353              8.707    1544.853817
                   1 Jul 2023 06:59:10.000          284.956             15.045    1190.220486
                   1 Jul 2023 07:00:10.000          267.292             23.239     900.764348
                   1 Jul 2023 07:01:10.000          235.203             29.518     757.192000
                   1 Jul 2023 07:02:10.000          199.660             25.557     838.718962
                   1 Jul 2023 07:03:10.000          178.266             17.073    1095.925869
                   1 Jul 2023 07:04:10.000          167.062             10.145    1436.630285
                   1 Jul 2023 07:05:10.000          160.632              4.934    1813.334365
                   1 Jul 2023 07:06:10.000          156.545              0.805    2206.466419
                   1 Jul 2023 07:06:23.116          155.844              0.000    2293.628766

Min Elevation      1 Jul 2023 07:06:23.116          155.844              0.000    2293.628771
Max Elevation      1 Jul 2023 07:01:18.382          229.824             29.645     754.580264
Mean Elevation                                                          11.575               
Min Range          1 Jul 2023 07:01:18.796          229.558             29.645     754.574481
Max Range          1 Jul 2023 06:56:10.345          303.447              0.000    2322.062123
Mean Range                                                                        1527.315439

                         Time (UTCG)          Azimuth (deg)    Elevation (deg)     Range (km)
                  ------------------------    -------------    ---------------    -----------
                   1 Jul 2023 20:22:15.677          150.350              0.000    2294.454177
                   1 Jul 2023 20:23:15.000          139.875              1.487    2138.068783
                   1 Jul 2023 20:24:15.000          128.006              2.344    2054.750260
                   1 Jul 2023 20:25:15.000          115.646              2.360    2056.345909
                   1 Jul 2023 20:26:15.000          103.811              1.533    2142.807229
                   1 Jul 2023 20:27:15.000           93.287              0.052    2304.395067
                   1 Jul 2023 20:27:16.819           92.993              0.000    2310.313589

Min Elevation      1 Jul 2023 20:27:16.819           92.993              0.000    2310.313590
Max Elevation      1 Jul 2023 20:24:46.071          121.602              2.463    2044.722512
Mean Elevation                                                           1.111               
Min Range          1 Jul 2023 20:24:43.899          122.051              2.462    2044.665477
Max Range          1 Jul 2023 20:27:16.819           92.993              0.000    2310.313590
Mean Range                                                                        2185.876430

                         Time (UTCG)          Azimuth (deg)    Elevation (deg)     Range (km)
                  ------------------------    -------------    ---------------    -----------
                   1 Jul 2023 21:55:11.487          217.727              0.000    2295.955896
                   1 Jul 2023 21:56:11.000          216.530              4.120    1885.891734
                   1 Jul 2023 21:57:11.000          214.578              9.530    1476.547693
                   1 Jul 2023 21:58:11.000          210.926             17.547    1078.677685
                   1 Jul 2023 21:59:11.000          201.985             31.867     714.823222
                   1 Jul 2023 22:00:11.000          162.520             57.618     474.594039
                   1 Jul 2023 22:01:11.000           78.469             45.465     554.567764
                   1 Jul 2023 22:02:11.000           59.987             24.503     870.353201
                   1 Jul 2023 22:03:11.000           54.282             13.741    1254.265660
                   1 Jul 2023 22:04:11.000           51.623              7.150    1658.616800
                   1 Jul 2023 22:05:11.000           50.127              2.407    2070.243091
                   1 Jul 2023 22:05:47.791           49.509              0.000    2323.982175

Min Elevation      1 Jul 2023 21:55:11.487          217.727              0.000    2295.955896
Max Elevation      1 Jul 2023 22:00:27.736          133.497             61.064     459.535020
Mean Elevation                                                          17.829               
Min Range          1 Jul 2023 22:00:27.586          133.782             61.064     459.533769
Max Range          1 Jul 2023 22:05:47.791           49.509              0.000    2323.982408
Mean Range                                                                        1388.209913

                         Time (UTCG)          Azimuth (deg)    Elevation (deg)     Range (km)
                  ------------------------    -------------    ---------------    -----------
                   1 Jul 2023 23:32:30.772          269.115              0.000    2311.030189
                   1 Jul 2023 23:33:30.000          276.030              3.244    1980.466162
                   1 Jul 2023 23:34:30.000          285.690              6.780    1682.053109
                   1 Jul 2023 23:35:30.000          299.125             10.270    1444.631166
                   1 Jul 2023 23:36:30.000          316.855             12.805    1303.061314
                   1 Jul 2023 23:37:30.000          336.987             13.094    1289.808739
                   1 Jul 2023 23:38:30.000          355.441             10.959    1408.426432
                   1 Jul 2023 23:39:30.000            9.734              7.602    1629.863088
                   1 Jul 2023 23:40:30.000           20.068              4.067    1918.021664
                   1 Jul 2023 23:41:30.000           27.536              0.748    2246.352812
                   1 Jul 2023 23:41:44.271           29.002              0.000    2328.402508

Min Elevation      1 Jul 2023 23:32:30.772          269.115              0.000    2311.030189
Max Elevation      1 Jul 2023 23:37:06.510          329.071             13.302    1278.592404
Mean Elevation                                                           6.324               
Min Range          1 Jul 2023 23:37:05.809          328.833             13.302    1278.582938
Max Range          1 Jul 2023 23:41:44.271           29.002              0.000    2328.402521
Mean Range                                                                        1776.556108

                         Time (UTCG)          Azimuth (deg)    Elevation (deg)     Range (km)
                  ------------------------    -------------    ---------------    -----------
                   2 Jul 2023 01:12:15.576          319.763              0.000    2326.246088
                   2 Jul 2023 01:13:15.000          330.141              1.415    2175.100234
                   2 Jul 2023 01:14:15.000          341.793              2.238    2092.462522
                   2 Jul 2023 01:15:15.000          353.932              2.283    2088.746796
                   2 Jul 2023 01:16:15.000            5.663              1.541    2164.326192
                   2 Jul 2023 01:17:15.000           16.265              0.170    2311.106525
                   2 Jul 2023 01:17:21.255           17.288              0.000    2329.999518

Min Elevation      2 Jul 2023 01:12:15.576          319.763              0.000    2326.246088
Max Elevation      2 Jul 2023 01:14:48.307          348.528              2.364    2080.414332
Mean Elevation                                                           1.092               
Min Range          2 Jul 2023 01:14:47.757          348.417              2.364    2080.410988
Max Range          2 Jul 2023 01:17:21.255           17.288              0.000    2329.999522
Mean Range                                                                        2212.569697

                         Time (UTCG)          Azimuth (deg)    Elevation (deg)     Range (km)
                  ------------------------    -------------    ---------------    -----------
                   2 Jul 2023 02:50:37.534          342.934              0.000    2330.024109
                   2 Jul 2023 02:51:37.000          353.376              1.315    2187.970297
                   2 Jul 2023 02:52:37.000            4.982              2.023    2114.945279
                   2 Jul 2023 02:53:37.000           16.963              1.964    2120.157637
                   2 Jul 2023 02:54:37.000           28.461              1.151    2203.075745
                   2 Jul 2023 02:55:27.448           37.258              0.000    2326.882728

Min Elevation      2 Jul 2023 02:50:37.534          342.934              0.000    2330.024109
Max Elevation      2 Jul 2023 02:53:02.578           10.094              2.095    2107.425679
Mean Elevation                                                           1.075               
Min Range          2 Jul 2023 02:53:03.074           10.194              2.095    2107.423037
Max Range          2 Jul 2023 02:50:37.534          342.934              0.000    2330.024109
Mean Range                                                                        2213.842633

                         Time (UTCG)          Azimuth (deg)    Elevation (deg)     Range (km)
                  ------------------------    -------------    ---------------    -----------
                   2 Jul 2023 04:26:16.702          332.043              0.000    2328.571115
                   2 Jul 2023 04:27:16.000          339.254              3.103    2007.543165
                   2 Jul 2023 04:28:16.000          349.137              6.400    1721.237665
                   2 Jul 2023 04:29:16.000            2.535              9.521    1497.597237
                   2 Jul 2023 04:30:16.000           19.675             11.632    1368.945531
                   2 Jul 2023 04:31:16.000           38.685             11.706    1363.162074
                   2 Jul 2023 04:32:16.000           56.098              9.689    1481.834006
                   2 Jul 2023 04:33:16.000           69.826              6.576    1698.774578
                   2 Jul 2023 04:34:16.000           79.961              3.247    1981.338523
                   2 Jul 2023 04:35:16.000           87.404              0.068    2304.657849
                   2 Jul 2023 04:35:17.329           87.545              0.000    2312.147606

Min Elevation      2 Jul 2023 04:35:17.329           87.545              0.000    2312.147606
Max Elevation      2 Jul 2023 04:30:47.947           29.781             11.963    1349.666308
Mean Elevation                                                           5.631               
Min Range          2 Jul 2023 04:30:48.666           30.011             11.963    1349.656406
Max Range          2 Jul 2023 04:26:16.702          332.043              0.000    2328.571115
Mean Range                                                                        1824.164486

                         Time (UTCG)          Azimuth (deg)    Elevation (deg)     Range (km)
                  ------------------------    -------------    ---------------    -----------
                   2 Jul 2023 06:02:09.538          312.152              0.000    2324.413476
                   2 Jul 2023 06:03:09.000          311.678              4.071    1913.310528
                   2 Jul 2023 06:04:09.000          310.827              9.404    1501.280804
                   2 Jul 2023 06:05:09.000          309.138             17.306    1097.986209
                   2 Jul 2023 06:06:09.000          304.835             31.730     721.461747
                   2 Jul 2023 06:07:09.000          280.611             63.966     449.058528
                   2 Jul 2023 06:08:09.000          157.548             52.813     500.461307
                   2 Jul 2023 06:09:09.000          144.625             26.555     816.586253
                   2 Jul 2023 06:10:09.000          141.384             14.565    1203.744912
                   2 Jul 2023 06:11:09.000          139.960              7.562    1610.510875
                   2 Jul 2023 06:12:09.000          139.180              2.637    2023.908347
                   2 Jul 2023 06:12:48.412          138.840              0.000    2296.686738

Min Elevation      2 Jul 2023 06:02:09.538          312.152              0.000    2324.413476
Max Elevation      2 Jul 2023 06:07:30.870          225.768             74.433     420.515987
Mean Elevation                                                          19.217               
Min Range          2 Jul 2023 06:07:31.040          225.131             74.432     420.514222
Max Range          2 Jul 2023 06:02:09.538          312.152              0.000    2324.413476
Mean Range                                                                        1371.617477

                         Time (UTCG)          Azimuth (deg)    Elevation (deg)     Range (km)
                  ------------------------    -------------    ---------------    -----------
                   2 Jul 2023 07:40:15.728          272.480              0.000    2312.172763
                   2 Jul 2023 07:41:15.000          262.607              1.879    2109.543946
                   2 Jul 2023 07:42:15.000          250.835              3.236    1974.119091
                   2 Jul 2023 07:43:15.000          237.877              3.742    1924.071031
                   2 Jul 2023 07:44:15.000          224.866              3.256    1966.002019
                   2 Jul 2023 07:45:15.000          212.955              1.908    2094.087984
                   2 Jul 2023 07:46:15.000          202.793              0.001    2293.322403
                   2 Jul 2023 07:46:15.032          202.788              0.000    2293.445088

Min Elevation      2 Jul 2023 07:46:15.032          202.788              0.000    2293.445089
Max Elevation      2 Jul 2023 07:43:15.667          237.731              3.742    1924.030831
Mean Elevation                                                           1.753               
Min Range          2 Jul 2023 07:43:17.667          237.291              3.742    1923.979277
Max Range          2 Jul 2023 07:40:15.728          272.480              0.000    2312.172763
Mean Range                                                                        2120.845541

                         Time (UTCG)          Azimuth (deg)    Elevation (deg)     Range (km)
                  ------------------------    -------------    ---------------    -----------
                   2 Jul 2023 21:01:41.665          200.476              0.000    2293.154640
                   2 Jul 2023 21:02:41.000          196.126              3.820    1910.219909
                   2 Jul 2023 21:03:41.000          189.459              8.522    1540.779783
                   2 Jul 2023 21:04:41.000          178.499             14.434    1208.041849
                   2 Jul 2023 21:05:41.000          159.397             21.234     953.480509
                   2 Jul 2023 21:06:41.000          129.583             25.052     851.943892
                   2 Jul 2023 21:07:41.000           99.765             21.347     954.128643
                   2 Jul 2023 21:08:41.000           80.669             14.612    1209.190160
                   2 Jul 2023 21:09:41.000           69.737              8.732    1542.371625
                   2 Jul 2023 21:10:41.000           63.117              4.045    1912.289591
                   2 Jul 2023 21:11:41.000           58.791              0.192    2300.128157
                   2 Jul 2023 21:11:44.253           58.600              0.000    2321.469315

Min Elevation      2 Jul 2023 21:01:41.665          200.476              0.000    2293.154640
Max Elevation      2 Jul 2023 21:06:41.424          129.352             25.052     851.951727
Mean Elevation                                                          10.166               
Min Range          2 Jul 2023 21:06:40.905          129.636             25.052     851.943612
Max Range          2 Jul 2023 21:11:44.253           58.600              0.000    2321.469316
Mean Range                                                                        1583.099839

                         Time (UTCG)          Azimuth (deg)    Elevation (deg)     Range (km)
                  ------------------------    -------------    ---------------    -----------
                   2 Jul 2023 22:37:59.638          253.033              0.000    2305.654267
                   2 Jul 2023 22:38:59.000          257.879              3.728    1930.478695
                   2 Jul 2023 22:39:59.000          265.093              8.239    1570.988799
                   2 Jul 2023 22:40:59.000          276.502             13.736    1250.497555
                   2 Jul 2023 22:41:59.000          295.304             19.735    1008.701354
                   2 Jul 2023 22:42:59.000          323.028             22.986     911.708971
                   2 Jul 2023 22:43:59.000          350.984             20.013    1002.714918
                   2 Jul 2023 22:44:59.000           10.130             14.091    1240.611941
                   2 Jul 2023 22:45:59.000           21.767              8.594    1558.750634
                   2 Jul 2023 22:46:59.000           29.130              4.072    1916.542853
                   2 Jul 2023 22:47:59.000           34.133              0.299    2294.313597
                   2 Jul 2023 22:48:04.170           34.490              0.000    2327.437648

Min Elevation      2 Jul 2023 22:37:59.638          253.033              0.000    2305.654267
Max Elevation      2 Jul 2023 22:43:00.450          323.757             22.988     911.687533
Mean Elevation                                                           9.624               
Min Range          2 Jul 2023 22:42:59.996          323.529             22.988     911.681820
Max Range          2 Jul 2023 22:48:04.170           34.490              0.000    2327.437825
Mean Range                                                                        1609.866769

                         Time (UTCG)          Azimuth (deg)    Elevation (deg)     Range (km)
                  ------------------------    -------------    ---------------    -----------
                   3 Jul 2023 00:17:09.261          304.341              0.000    2322.325023
                   3 Jul 2023 00:18:09.000          314.179              1.979    2114.021050
                   3 Jul 2023 00:19:09.000          325.840              3.487    1969.532672
                   3 Jul 2023 00:20:09.000          338.806              4.207    1905.259485
                   3 Jul 2023 00:21:09.000          352.048              3.950    1929.422865
                   3 Jul 2023 00:22:09.000            4.405              2.791    2038.714076
                   3 Jul 2023 00:23:09.000           15.127              1.006    2220.130710
                   3 Jul 2023 00:23:38.258           19.691              0.000    2329.740533

Min Elevation      3 Jul 2023 00:23:38.258           19.691              0.000    2329.740619
Max Elevation      3 Jul 2023 00:20:23.480          342.023              4.237    1902.917812
Mean Elevation                                                           2.178               
Min Range          3 Jul 2023 00:20:22.763          341.863              4.236    1902.910747
Max Range          3 Jul 2023 00:23:38.258           19.691              0.000    2329.740619
Mean Range                                                                        2103.643302

                         Time (UTCG)          Azimuth (deg)    Elevation (deg)     Range (km)
                  ------------------------    -------------    ---------------    -----------
                   3 Jul 2023 01:56:36.773          341.699              0.000    2329.893543
                   3 Jul 2023 01:57:36.000          352.318              0.971    2224.389359
                   3 Jul 2023 01:58:36.000            3.767              1.304    2189.205820
                   3 Jul 2023 01:59:36.000           15.188              0.916    2229.720961
                   3 Jul 2023 02:00:30.592           24.950              0.000    2329.056525

Min Elevation      3 Jul 2023 02:00:30.592           24.950              0.000    2329.056525
Max Elevation      3 Jul 2023 01:58:33.696            3.323              1.304    2189.158027
Mean Elevation                                                           0.638               
Min Range          3 Jul 2023 01:58:33.868            3.356              1.304    2189.157706
Max Range          3 Jul 2023 01:56:36.773          341.699              0.000    2329.893543
Mean Range                                                                        2260.453241

                         Time (UTCG)          Azimuth (deg)    Elevation (deg)     Range (km)
                  ------------------------    -------------    ---------------    -----------
                   3 Jul 2023 03:32:38.985          336.655              0.000    2329.268901
                   3 Jul 2023 03:33:38.000          345.308              2.522    2064.511237
                   3 Jul 2023 03:34:38.000          356.407              4.864    1848.423356
                   3 Jul 2023 03:35:38.000            9.899              6.578    1707.309161
                   3 Jul 2023 03:36:38.000           24.989              7.167    1661.129028
                   3 Jul 2023 03:37:38.000           39.980              6.405    1717.850575
                   3 Jul 2023 03:38:38.000           53.237              4.569    1868.008699
                   3 Jul 2023 03:39:38.000           64.067              2.161    2091.128207
                   3 Jul 2023 03:40:28.047           71.332              0.000    2317.570030

Min Elevation      3 Jul 2023 03:40:28.047           71.332              0.000    2317.570031
Max Elevation      3 Jul 2023 03:36:34.067           23.982              7.170    1660.998395
Mean Elevation                                                           3.807               
Min Range          3 Jul 2023 03:36:34.868           24.187              7.170    1660.988562
Max Range          3 Jul 2023 03:32:38.985          336.655              0.000    2329.268901
Mean Range                                                                        1956.133244

                         Time (UTCG)          Azimuth (deg)    Elevation (deg)     Range (km)
                  ------------------------    -------------    ---------------    -----------
                   3 Jul 2023 05:08:18.810          319.418              0.000    2326.143037
                   3 Jul 2023 05:09:18.000          321.782              3.963    1924.960438
                   3 Jul 2023 05:10:18.000          325.383              9.082    1524.457973
                   3 Jul 2023 05:11:18.000          331.582             16.326    1139.381014
                   3 Jul 2023 05:12:18.000          344.747             27.854     795.420507
                   3 Jul 2023 05:13:18.000           20.949             43.324     574.915877
                   3 Jul 2023 05:14:18.000           78.356             38.302     627.056411
                   3 Jul 2023 05:15:18.000          103.453             23.017     905.908189
                   3 Jul 2023 05:16:18.000          113.261             13.265    1269.384519
                   3 Jul 2023 05:17:18.000          118.260              6.915    1661.940802
                   3 Jul 2023 05:18:18.000          121.293              2.247    2065.940525
                   3 Jul 2023 05:18:52.543          122.562              0.000    2300.871319

Min Elevation      3 Jul 2023 05:18:52.543          122.562              0.000    2300.871671
Max Elevation      3 Jul 2023 05:13:37.497           41.036             45.216     557.538139
Mean Elevation                                                          15.358               
Min Range          3 Jul 2023 05:13:37.701           41.256             45.215     557.536232
Max Range          3 Jul 2023 05:08:18.810          319.418              0.000    2326.143037
Mean Range                                                                        1426.365051

                         Time (UTCG)          Azimuth (deg)    Elevation (deg)     Range (km)
                  ------------------------    -------------    ---------------    -----------
                   3 Jul 2023 06:45:15.163          290.040              0.000    2317.990506
                   3 Jul 2023 06:46:15.000          282.816              3.156    1990.664442
                   3 Jul 2023 06:47:15.000          272.821              6.452    1704.344093
                   3 Jul 2023 06:48:15.000          259.154              9.495    1485.863060
                   3 Jul 2023 06:49:15.000          241.773             11.382    1369.098699
                   3 Jul 2023 06:50:15.000          222.907             11.136    1380.515618
                   3 Jul 2023 06:51:15.000          206.088              8.892    1517.065986
                   3 Jul 2023 06:52:15.000          193.097              5.708    1749.105040
                   3 Jul 2023 06:53:15.000          183.621              2.392    2043.483661
                   3 Jul 2023 06:54:00.288          178.217              0.000    2291.919694

Min Elevation      3 Jul 2023 06:45:15.163          290.040              0.000    2317.990506
Max Elevation      3 Jul 2023 06:49:38.654          234.310             11.566    1357.661422
Mean Elevation                                                           5.861               
Min Range          3 Jul 2023 06:49:39.868          233.925             11.565    1357.635454
Max Range          3 Jul 2023 06:45:15.163          290.040              0.000    2317.990506
Mean Range                                                                        1785.005080

                         Time (UTCG)          Azimuth (deg)    Elevation (deg)     Range (km)
                  ------------------------    -------------    ---------------    -----------
                   3 Jul 2023 20:08:40.163          181.186              0.000    2291.917448
                   3 Jul 2023 20:09:40.000          173.673              3.159    1970.367133
                   3 Jul 2023 20:10:40.000          163.349              6.437    1691.844317
                   3 Jul 2023 20:11:40.000          149.380              9.409    1483.866242
                   3 Jul 2023 20:12:40.000          131.911             11.158    1379.905555
                   3 Jul 2023 20:13:40.000          113.320             10.793    1403.863511
                   3 Jul 2023 20:14:40.000           96.978              8.540    1549.842327
                   3 Jul 2023 20:15:40.000           84.415              5.422    1787.780732
                   3 Jul 2023 20:16:40.000           75.250              2.184    2085.709025
                   3 Jul 2023 20:17:22.111           70.349              0.000    2317.889567

Min Elevation      3 Jul 2023 20:17:22.111           70.349              0.000    2317.889728
Max Elevation      3 Jul 2023 20:13:00.233          125.588             11.289    1373.269670
Mean Elevation                                                           5.710               
Min Range          3 Jul 2023 20:12:59.030          125.965             11.288    1373.242982
Max Range          3 Jul 2023 20:17:22.111           70.349              0.000    2317.889728
Mean Range                                                                        1796.298586

                         Time (UTCG)          Azimuth (deg)    Elevation (deg)     Range (km)
                  ------------------------    -------------    ---------------    -----------
                   3 Jul 2023 21:43:45.590          236.980              0.000    2300.736573
                   3 Jul 2023 21:44:45.000          239.272              4.046    1897.024035
                   3 Jul 2023 21:45:45.000          242.823              9.294    1495.791709
                   3 Jul 2023 21:46:45.000          249.062             16.812    1110.677482
                   3 Jul 2023 21:47:45.000          262.703             28.975     769.028150
                   3 Jul 2023 21:48:45.000          301.639             44.921     559.749931
                   3 Jul 2023 21:49:45.000          359.465             37.974     632.721744
                   3 Jul 2023 21:50:45.000           22.763             22.604     922.979471
                   3 Jul 2023 21:51:45.000           31.893             13.064    1290.681823
                   3 Jul 2023 21:52:45.000           36.613              6.837    1684.806860
                   3 Jul 2023 21:53:45.000           39.526              2.239    2089.221319
                   3 Jul 2023 21:54:19.838           40.773              0.000    2326.096939

Min Elevation      3 Jul 2023 21:43:45.590          236.980              0.000    2300.736573
Max Elevation      3 Jul 2023 21:49:00.897          318.827             46.292     548.469212
Mean Elevation                                                          15.564               
Min Range          3 Jul 2023 21:49:00.700          318.607             46.292     548.467414
Max Range          3 Jul 2023 21:54:19.838           40.773              0.000    2326.097258
Mean Range                                                                        1423.293003

                         Time (UTCG)          Azimuth (deg)    Elevation (deg)     Range (km)
                  ------------------------    -------------    ---------------    -----------
                   3 Jul 2023 23:22:08.658          288.207              0.000    2317.401485
                   3 Jul 2023 23:23:08.000          296.955              2.571    2050.859525
                   3 Jul 2023 23:24:08.000          308.145              4.947    1835.544383
                   3 Jul 2023 23:25:08.000          321.755              6.683    1696.416389
                   3 Jul 2023 23:26:08.000          336.944              7.273    1653.337375
                   3 Jul 2023 23:27:08.000          351.974              6.498    1713.638473
                   3 Jul 2023 23:28:08.000            5.210              4.650    1867.011925
                   3 Jul 2023 23:29:08.000           15.993              2.240    2092.469907
                   3 Jul 2023 23:29:59.938           23.465              0.000    2329.263967

Min Elevation      3 Jul 2023 23:29:59.938           23.465              0.000    2329.263967
Max Elevation      3 Jul 2023 23:26:03.739          335.848              7.277    1652.969971
Mean Elevation                                                           3.874               
Min Range          3 Jul 2023 23:26:02.885          335.628              7.277    1652.960096
Max Range          3 Jul 2023 23:29:59.938           23.465              0.000    2329.263967
Mean Range                                                                        1950.660381

                         Time (UTCG)          Azimuth (deg)    Elevation (deg)     Range (km)
                  ------------------------    -------------    ---------------    -----------
                   4 Jul 2023 01:02:06.379          334.766              0.000    2329.015272
                   4 Jul 2023 01:03:06.000          345.462              0.981    2222.853888
                   4 Jul 2023 01:04:06.000          356.919              1.315    2188.038001
                   4 Jul 2023 01:05:06.000            8.344              0.928    2228.965543
                   4 Jul 2023 01:06:01.125           18.197              0.000    2329.895981

Min Elevation      4 Jul 2023 01:02:06.379          334.766              0.000    2329.015272
Max Elevation      4 Jul 2023 01:04:03.731          356.481              1.315    2187.974916
Mean Elevation                                                           0.645               
Min Range          4 Jul 2023 01:04:03.554          356.447              1.315    2187.974592
Max Range          4 Jul 2023 01:06:01.125           18.197              0.000    2329.895982
Mean Range                                                                        2259.753737

                         Time (UTCG)          Azimuth (deg)    Elevation (deg)     Range (km)
                  ------------------------    -------------    ---------------    -----------
                   4 Jul 2023 02:39:00.604          340.401              0.000    2329.732557
                   4 Jul 2023 02:40:00.000          350.147              1.944    2122.702436
                   4 Jul 2023 02:41:00.000            1.752              3.432    1977.453697
                   4 Jul 2023 02:42:00.000           14.661              4.141    1911.760775
                   4 Jul 2023 02:43:00.000           27.867              3.880    1934.099481
                   4 Jul 2023 02:44:00.000           40.214              2.721    2041.571230
                   4 Jul 2023 02:45:00.000           50.945              0.934    2221.530382
                   4 Jul 2023 02:45:27.179           55.206              0.000    2322.471032

Min Elevation      4 Jul 2023 02:45:27.179           55.206              0.000    2322.471109
Max Elevation      4 Jul 2023 02:42:14.163           17.796              4.169    1909.006133
Mean Elevation                                                           2.132               
Min Range          4 Jul 2023 02:42:14.945           17.970              4.169    1908.999169
Max Range          4 Jul 2023 02:39:00.604          340.401              0.000    2329.732557
Mean Range                                                                        2107.665199

                         Time (UTCG)          Azimuth (deg)    Elevation (deg)     Range (km)
                  ------------------------    -------------    ---------------    -----------
                   4 Jul 2023 04:14:34.630          325.676              0.000    2327.470554
                   4 Jul 2023 04:15:34.000          330.535              3.667    1953.481232
                   4 Jul 2023 04:16:34.000          337.691              8.080    1594.630911
                   4 Jul 2023 04:17:34.000          348.889             13.424    1273.516787
                   4 Jul 2023 04:18:34.000            7.181             19.261    1028.236130
                   4 Jul 2023 04:19:34.000           34.234             22.589     922.938090
                   4 Jul 2023 04:20:34.000           62.131             19.903    1003.327624
                   4 Jul 2023 04:21:34.000           81.648             14.093    1233.487240
                   4 Jul 2023 04:22:34.000           93.592              8.586    1547.394274
                   4 Jul 2023 04:23:34.000          101.136              4.033    1903.182539
                   4 Jul 2023 04:24:34.000          106.231              0.232    2280.270362
                   4 Jul 2023 04:24:37.984          106.511              0.000    2305.778249

Min Elevation      4 Jul 2023 04:14:34.630          325.676              0.000    2327.470554
Max Elevation      4 Jul 2023 04:19:37.761           36.098             22.603     922.459963
Mean Elevation                                                           9.489               
Min Range          4 Jul 2023 04:19:38.224           36.327             22.603     922.454151
Max Range          4 Jul 2023 04:14:34.630          325.676              0.000    2327.470554
Mean Range                                                                        1614.476166

                         Time (UTCG)          Azimuth (deg)    Elevation (deg)     Range (km)
                  ------------------------    -------------    ---------------    -----------
                   4 Jul 2023 05:50:53.716          301.688              0.000    2321.583920
                   4 Jul 2023 05:51:53.000          297.602              3.780    1936.506286
                   4 Jul 2023 05:52:53.000          291.303              8.430    1563.250479
                   4 Jul 2023 05:53:53.000          280.907             14.300    1224.028855
                   4 Jul 2023 05:54:53.000          262.581             21.230     957.857541
                   4 Jul 2023 05:55:53.000          232.955             25.606     838.963679
                   4 Jul 2023 05:56:53.000          201.988             22.161     926.363450
                   4 Jul 2023 05:57:53.000          181.947             15.177    1174.549077
                   4 Jul 2023 05:58:53.000          170.585              9.056    1505.232113
                   4 Jul 2023 05:59:53.000          163.758              4.225    1874.208515
                   4 Jul 2023 06:00:53.000          159.304              0.288    2261.602450
                   4 Jul 2023 06:00:57.823          159.014             -0.000    2293.218712

Min Elevation      4 Jul 2023 06:00:57.823          159.014             -0.000    2293.218713
Max Elevation      4 Jul 2023 05:55:57.333          230.536             25.630     838.258322
Mean Elevation                                                          10.354               
Min Range          4 Jul 2023 05:55:57.837          230.254             25.630     838.250578
Max Range          4 Jul 2023 05:50:53.716          301.688              0.000    2321.583920
Mean Range                                                                        1573.113756

                         Time (UTCG)          Azimuth (deg)    Elevation (deg)     Range (km)
                  ------------------------    -------------    ---------------    -----------
                   4 Jul 2023 19:16:27.534          156.333              0.000    2293.561998
                   4 Jul 2023 19:17:27.000          146.207              1.842    2100.924360
                   4 Jul 2023 19:18:27.000          134.304              3.130    1977.919278
                   4 Jul 2023 19:19:27.000          121.376              3.560    1940.933011
                   4 Jul 2023 19:20:27.000          108.562              3.015    1995.062900
                   4 Jul 2023 19:21:27.000           96.949              1.647    2133.304880
                   4 Jul 2023 19:22:19.657           88.206              0.000    2311.940074

Min Elevation      4 Jul 2023 19:16:27.534          156.333              0.000    2293.561998
Max Elevation      4 Jul 2023 19:19:23.288          122.185              3.562    1940.567954
Mean Elevation                                                           1.885               
Min Range          4 Jul 2023 19:19:21.279          122.623              3.561    1940.517638
Max Range          4 Jul 2023 19:22:19.657           88.206              0.000    2311.940075
Mean Range                                                                        2107.663786

                         Time (UTCG)          Azimuth (deg)    Elevation (deg)     Range (km)
                  ------------------------    -------------    ---------------    -----------
                   4 Jul 2023 20:49:50.281          220.689              0.000    2296.586027
                   4 Jul 2023 20:50:50.000          220.042              4.152    1883.682293
                   4 Jul 2023 20:51:50.000          218.963              9.609    1472.054613
                   4 Jul 2023 20:52:50.000          216.888             17.784    1070.122798
                   4 Jul 2023 20:53:50.000          211.578             32.930     698.017398
                   4 Jul 2023 20:54:50.000          179.782             65.665     442.603293
                   4 Jul 2023 20:55:50.000           66.639             49.737     521.883436
                   4 Jul 2023 20:56:50.000           54.110             25.502     846.312100
                   4 Jul 2023 20:57:50.000           50.716             14.144    1235.142781
                   4 Jul 2023 20:58:50.000           49.211              7.376    1642.201883
                   4 Jul 2023 20:59:50.000           48.404              2.561    2055.458103
                   4 Jul 2023 21:00:28.885           48.073              0.000    2324.380921

Min Elevation      4 Jul 2023 21:00:28.885           48.073              0.000    2324.381122
Max Elevation      4 Jul 2023 20:55:07.632          134.358             72.477     424.493017
Mean Elevation                                                          19.122               
Min Range          4 Jul 2023 20:55:07.529          134.697             72.476     424.492385
Max Range          4 Jul 2023 21:00:28.885           48.073              0.000    2324.381122
Mean Range                                                                        1374.037137

                         Time (UTCG)          Azimuth (deg)    Elevation (deg)     Range (km)
                  ------------------------    -------------    ---------------    -----------
                   4 Jul 2023 22:27:19.757          271.995              0.000    2311.994873
                   4 Jul 2023 22:28:19.000          279.231              3.148    1990.398393
                   4 Jul 2023 22:29:19.000          289.208              6.504    1704.111188
                   4 Jul 2023 22:30:19.000          302.783              9.684    1481.941160
                   4 Jul 2023 22:31:19.000          320.148             11.819    1356.742210
                   4 Jul 2023 22:32:19.000          339.308             11.860    1356.068761
                   4 Jul 2023 22:33:19.000          356.715              9.795    1479.973187
                   4 Jul 2023 22:34:19.000           10.349              6.660    1700.917498
                   4 Jul 2023 22:35:19.000           20.387              3.331    1985.958532
                   4 Jul 2023 22:36:19.000           27.763              0.163    2310.478985
                   4 Jul 2023 22:36:22.198           28.099              0.000    2328.554180

Min Elevation      4 Jul 2023 22:27:19.757          271.995              0.000    2311.994873
Max Elevation      4 Jul 2023 22:31:50.040          330.060             12.138    1340.017974
Mean Elevation                                                           5.724               
Min Range          4 Jul 2023 22:31:49.308          329.824             12.138    1340.008133
Max Range          4 Jul 2023 22:36:22.198           28.099              0.000    2328.554181
Mean Range                                                                        1818.830815

                         Time (UTCG)          Azimuth (deg)    Elevation (deg)     Range (km)
                  ------------------------    -------------    ---------------    -----------
                   5 Jul 2023 00:07:08.999          322.339              0.000    2326.798643
                   5 Jul 2023 00:08:08.000          332.707              1.321    2185.320992
                   5 Jul 2023 00:09:08.000          344.326              2.049    2111.664105
                   5 Jul 2023 00:10:08.000          356.327              2.009    2116.405889
                   5 Jul 2023 00:11:08.000            7.849              1.210    2198.977885
                   5 Jul 2023 00:12:01.019           17.088              0.000    2330.013125

Min Elevation      5 Jul 2023 00:07:08.999          322.339              0.000    2326.798643
Max Elevation      5 Jul 2023 00:09:34.922          349.716              2.130    2103.919993
Mean Elevation                                                           1.098               
Min Range          5 Jul 2023 00:09:34.435          349.618              2.130    2103.917258
Max Range          5 Jul 2023 00:12:01.019           17.088              0.000    2330.013125
Mean Range                                                                        2211.530106

                         Time (UTCG)          Azimuth (deg)    Elevation (deg)     Range (km)
                  ------------------------    -------------    ---------------    -----------
                   5 Jul 2023 01:45:17.381          342.751              0.000    2329.990752
                   5 Jul 2023 01:46:17.000          353.150              1.403    2178.739092
                   5 Jul 2023 01:47:17.000            4.783              2.207    2096.349357
                   5 Jul 2023 01:48:17.000           16.898              2.237    2092.665838
                   5 Jul 2023 01:49:17.000           28.609              1.484    2168.153656
                   5 Jul 2023 01:50:17.000           39.193              0.104    2314.843570
                   5 Jul 2023 01:50:20.826           39.820              0.000    2326.323459

Min Elevation      5 Jul 2023 01:50:20.826           39.820              0.000    2326.323461
Max Elevation      5 Jul 2023 01:47:49.194           11.280              2.324    2084.341029
Mean Elevation                                                           1.062               
Min Range          5 Jul 2023 01:47:49.739           11.390              2.324    2084.337591
Max Range          5 Jul 2023 01:45:17.381          342.751              0.000    2329.990752
Mean Range                                                                        2215.295103

                         Time (UTCG)          Azimuth (deg)    Elevation (deg)     Range (km)
                  ------------------------    -------------    ---------------    -----------
                   5 Jul 2023 03:20:54.616          331.144              0.000    2328.445013
                   5 Jul 2023 03:21:54.000          338.051              3.202    1997.981280
                   5 Jul 2023 03:22:54.000          347.622              6.674    1699.727615
                   5 Jul 2023 03:23:54.000            0.876             10.095    1461.038037
                   5 Jul 2023 03:24:54.000           18.353             12.596    1316.098674
                   5 Jul 2023 03:25:54.000           38.298             12.921    1297.525560
                   5 Jul 2023 03:26:54.000           56.750             10.846    1410.522534
                   5 Jul 2023 03:27:54.000           71.149              7.517    1627.638129
                   5 Jul 2023 03:28:54.000           81.592              3.982    1913.131036
                   5 Jul 2023 03:29:54.000           89.137              0.653    2240.154572
                   5 Jul 2023 03:30:06.388           90.425              0.000    2311.171733

Min Elevation      5 Jul 2023 03:20:54.616          331.144              0.000    2328.445013
Max Elevation      5 Jul 2023 03:25:31.511           30.772             13.108    1288.497450
Mean Elevation                                                           6.226               
Min Range          5 Jul 2023 03:25:32.218           31.010             13.108    1288.487893
Max Range          5 Jul 2023 03:20:54.616          331.144              0.000    2328.445013
Mean Range                                                                        1782.130380

                         Time (UTCG)          Azimuth (deg)    Elevation (deg)     Range (km)
                  ------------------------    -------------    ---------------    -----------
                   5 Jul 2023 04:56:50.576          310.723              0.000    2324.040672
                   5 Jul 2023 04:57:50.000          309.714              4.055    1914.334574
                   5 Jul 2023 04:58:50.000          308.019              9.352    1504.223411
                   5 Jul 2023 04:59:50.000          304.816             17.132    1104.431456
                   5 Jul 2023 05:00:50.000          297.046             30.914     735.142485
                   5 Jul 2023 05:01:50.000          262.932             57.243     477.122024
                   5 Jul 2023 05:02:50.000          172.080             48.120     531.786652
                   5 Jul 2023 05:03:50.000          152.301             25.509     840.068098
                   5 Jul 2023 05:04:50.000          146.567             14.152    1222.551343
                   5 Jul 2023 05:05:50.000          143.932              7.331    1626.716044
                   5 Jul 2023 05:06:50.000          142.437              2.479    2038.512217
                   5 Jul 2023 05:07:27.314          141.799              0.000    2296.049814

Min Elevation      5 Jul 2023 05:07:27.314          141.799              0.000    2296.050061
Max Elevation      5 Jul 2023 05:02:10.854          226.404             62.774     452.848744
Mean Elevation                                                          18.024               
Min Range          5 Jul 2023 05:02:11.011          226.083             62.774     452.847344
Max Range          5 Jul 2023 04:56:50.576          310.723              0.000    2324.040672
Mean Range                                                                        1384.581566

